{
"type": "FeatureCollection",
"crs": { "type": "name", "properties": { "name": "urn:ogc:def:crs:OGC:1.3:CRS84" } },
"features": [
{ "type": "Feature", "properties": { "ID": null, "站名简": "虎门站", "火车站": "虎门火车站", "省市": "广东_东莞", "谷歌地": 22.861466, "谷歌地_": 113.673421, "地址": "广东省东莞市东莞市站北路", "省": "广东", "市": "东莞", "站名": "虎门站", "lng火星": 113.673421, "lat火星": 22.861466, "type": "passenger", "WGS84_Lng": 113.668295, "WGS84_Lat": 22.864348 }, "geometry": { "type": "Point", "coordinates": [ 113.668294997651557, 22.864347876390365 ] } },
{ "type": "Feature", "properties": { "ID": null, "站名简": "东莞站", "火车站": "东莞火车站", "省市": "广东_东莞", "谷歌地": 23.087493, "谷歌地_": 113.858948, "地址": "广东省东莞市东莞市X234(茶业北路)", "省": "广东", "市": "东莞", "站名": "东莞站", "lng火星": 113.858948, "lat火星": 23.087493, "type": "passenger", "WGS84_Lng": 113.853979, "WGS84_Lat": 23.090335 }, "geometry": { "type": "Point", "coordinates": [ 113.853978963096225, 23.090335177377519 ] } },
{ "type": "Feature", "properties": { "ID": null, "站名简": "常平站", "火车站": "常平火车站", "省市": "广东_东莞", "谷歌地": 22.983108, "谷歌地_": 114.006309, "地址": "广东省东莞市东莞市口岸大道", "省": "广东", "市": "东莞", "站名": "常平站", "lng火星": 114.006309, "lat火星": 22.983108, "type": "passenger", "WGS84_Lng": 114.00127, "WGS84_Lat": 22.985826 }, "geometry": { "type": "Point", "coordinates": [ 114.001270177170298, 22.985825617394873 ] } },
{ "type": "Feature", "properties": { "ID": null, "站名简": "东莞东站", "火车站": "东莞东火车站", "省市": "广东_东莞", "谷歌地": 22.96726, "谷歌地_": 114.039065, "地址": "广东省东莞市东莞市常东路", "省": "广东", "市": "东莞", "站名": "东莞东站", "lng火星": 114.039065, "lat火星": 22.96726, "type": "passenger", "WGS84_Lng": 114.033952, "WGS84_Lat": 22.969893 }, "geometry": { "type": "Point", "coordinates": [ 114.033952127470798, 22.969893277494226 ] } },
{ "type": "Feature", "properties": { "ID": null, "站名简": "樟木头站", "火车站": "樟木头火车站", "省市": "广东_东莞", "谷歌地": 22.901511, "谷歌地_": 114.067369, "地址": "广东省东莞市东莞市广场路1号", "省": "广东", "市": "东莞", "站名": "樟木头站", "lng火星": 114.067369, "lat火星": 22.901511, "type": "passenger", "WGS84_Lng": 114.062222, "WGS84_Lat": 22.904118 }, "geometry": { "type": "Point", "coordinates": [ 114.06222215284437, 22.90411760073459 ] } },
{ "type": "Feature", "properties": { "ID": null, "站名简": "三水南站", "火车站": "三水南火车站", "省市": "广东_佛山", "谷歌地": 23.114116, "谷歌地_": 112.871332, "地址": "广东省佛山市三水区X496", "省": "广东", "市": "佛山", "站名": "三水南站", "lng火星": 112.871332, "lat火星": 23.114116, "type": "passenger", "WGS84_Lng": 112.866282, "WGS84_Lat": 23.116972 }, "geometry": { "type": "Point", "coordinates": [ 112.866282357397367, 23.116971870917194 ] } },
{ "type": "Feature", "properties": { "ID": null, "站名简": "三水站", "火车站": "三水火车站", "省市": "广东_佛山", "谷歌地": 23.15912, "谷歌地_": 112.887806, "地址": "广东省佛山市三水区站前路1", "省": "广东", "市": "佛山", "站名": "三水站", "lng火星": 112.887806, "lat火星": 23.15912, "type": "passenger", "WGS84_Lng": 112.882764, "WGS84_Lat": 23.161973 }, "geometry": { "type": "Point", "coordinates": [ 112.882763897094307, 23.161972933721355 ] } },
{ "type": "Feature", "properties": { "ID": null, "站名简": "佛山站", "火车站": "佛山火车站", "省市": "广东_佛山", "谷歌地": 23.047346, "谷歌地_": 113.103908, "地址": "广东省佛山市禅城区Y013(文昌西路)", "省": "广东", "市": "佛山", "站名": "佛山站", "lng火星": 113.103908, "lat火星": 23.047346, "type": "passenger", "WGS84_Lng": 113.098416, "WGS84_Lat": 23.049878 }, "geometry": { "type": "Point", "coordinates": [ 113.098415942653077, 23.049877579406747 ] } },
{ "type": "Feature", "properties": { "ID": null, "站名简": "碧江站", "火车站": "碧江火车站", "省市": "广东_佛山", "谷歌地": 22.949802, "谷歌地_": 113.262439, "地址": "广东省佛山市顺德区长宁路1号", "省": "广东", "市": "佛山", "站名": "碧江站", "lng火星": 113.262439, "lat火星": 22.949802, "type": "passenger", "WGS84_Lng": 113.257123, "WGS84_Lat": 22.952555 }, "geometry": { "type": "Point", "coordinates": [ 113.257123074584797, 22.952555358852475 ] } },
{ "type": "Feature", "properties": { "ID": null, "站名简": "北滘站", "火车站": "北滘火车站", "省市": "广东_佛山", "谷歌地": 22.915427, "谷歌地_": 113.263635, "地址": "广东省佛山市顺德区S112", "省": "广东", "市": "佛山", "站名": "北滘站", "lng火星": 113.263635, "lat火星": 22.915427, "type": "passenger", "WGS84_Lng": 113.25832, "WGS84_Lat": 22.918195 }, "geometry": { "type": "Point", "coordinates": [ 113.258320275228172, 22.918194995691614 ] } },
{ "type": "Feature", "properties": { "ID": null, "站名简": "顺德站", "火车站": "顺德火车站", "省市": "广东_佛山", "谷歌地": 22.875677, "谷歌地_": 113.276416, "地址": "广东省佛山市顺德区碧桂公路", "省": "广东", "市": "佛山", "站名": "顺德站", "lng火星": 113.276416, "lat火星": 22.875677, "type": "passenger", "WGS84_Lng": 113.271093, "WGS84_Lat": 22.878452 }, "geometry": { "type": "Point", "coordinates": [ 113.271093116038472, 22.878451686029461 ] } },
{ "type": "Feature", "properties": { "ID": null, "站名简": "容桂站", "火车站": "容桂火车站", "省市": "广东_佛山", "谷歌地": 22.751957, "谷歌地_": 113.309763, "地址": "广东省佛山市顺德区X520(碧桂南路)", "省": "广东", "市": "佛山", "站名": "容桂站", "lng火星": 113.309763, "lat火星": 22.751957, "type": "passenger", "WGS84_Lng": 113.304395, "WGS84_Lat": 22.754728 }, "geometry": { "type": "Point", "coordinates": [ 113.304395218260282, 22.754727932942121 ] } },
{ "type": "Feature", "properties": { "ID": null, "站名简": "顺德学院站", "火车站": "顺德学院火车站", "省市": "广东_佛山", "谷歌地": 22.822778, "谷歌地_": 113.319608, "地址": "广东省佛山市顺德区南国路东延线辅路", "省": "广东", "市": "佛山", "站名": "顺德学院站", "lng火星": 113.319608, "lat火星": 22.822778, "type": "passenger", "WGS84_Lng": 113.314216, "WGS84_Lat": 22.825507 }, "geometry": { "type": "Point", "coordinates": [ 113.314216382237106, 22.825507453022972 ] } },
{ "type": "Feature", "properties": { "ID": null, "站名简": "广州北站", "火车站": "广州北火车站", "省市": "广东_广州", "谷歌地": 23.377031, "谷歌地_": 113.20451, "地址": "广东省广州市花都区站前路1号", "省": "广东", "市": "广州", "站名": "广州北站", "lng火星": 113.20451, "lat火星": 23.377031, "type": "passenger", "WGS84_Lng": 113.199136, "WGS84_Lat": 23.379599 }, "geometry": { "type": "Point", "coordinates": [ 113.199135532056488, 23.379599088788549 ] } },
{ "type": "Feature", "properties": { "ID": null, "站名简": "广州站", "火车站": "广州火车站", "省市": "广东_广州", "谷歌地": 23.14891, "谷歌地_": 113.257569, "地址": "广东省广州市越秀区环市西路159号", "省": "广东", "市": "广州", "站名": "广州站", "lng火星": 113.257569, "lat火星": 23.14891, "type": "passenger", "WGS84_Lng": 113.252242, "WGS84_Lat": 23.151582 }, "geometry": { "type": "Point", "coordinates": [ 113.252242160626182, 23.151581929095759 ] } },
{ "type": "Feature", "properties": { "ID": null, "站名简": "广州南站", "火车站": "广州南火车站", "省市": "广东_广州", "谷歌地": 22.988726, "谷歌地_": 113.269446, "地址": "广东省广州市番禺区南站北路", "省": "广东", "市": "广州", "站名": "广州南站", "lng火星": 113.269446, "lat火星": 22.988726, "type": "passenger", "WGS84_Lng": 113.264122, "WGS84_Lat": 22.991459 }, "geometry": { "type": "Point", "coordinates": [ 113.26412167393643, 22.991458575315391 ] } },
{ "type": "Feature", "properties": { "ID": null, "站名简": "广州东站", "火车站": "广州东火车站", "省市": "广东_广州", "谷歌地": 23.150109, "谷歌地_": 113.324594, "地址": "广东省广州市天河区林和西路121号204房", "省": "广东", "市": "广州", "站名": "广州东站", "lng火星": 113.324594, "lat火星": 23.150109, "type": "passenger", "WGS84_Lng": 113.31917, "WGS84_Lat": 23.152693 }, "geometry": { "type": "Point", "coordinates": [ 113.319169589997713, 23.152693162568642 ] } },
{ "type": "Feature", "properties": { "ID": null, "站名简": "庆盛站", "火车站": "庆盛火车站", "省市": "广东_广州", "谷歌地": 22.866138, "谷歌地_": 113.491423, "地址": "广东省广州市番禺区庆沙路88", "省": "广东", "市": "广州", "站名": "庆盛站", "lng火星": 113.491423, "lat火星": 22.866138, "type": "passenger", "WGS84_Lng": 113.486103, "WGS84_Lat": 22.868901 }, "geometry": { "type": "Point", "coordinates": [ 113.486103477671463, 22.868901486256295 ] } },
{ "type": "Feature", "properties": { "ID": null, "站名简": "惠州西站", "火车站": "惠州西火车站", "省市": "广东_惠州", "谷歌地": 23.091821, "谷歌地_": 114.362573, "地址": "广东省惠州市惠城区永通路", "省": "广东", "市": "惠州", "站名": "惠州西站", "lng火星": 114.362573, "lat火星": 23.091821, "type": "passenger", "WGS84_Lng": 114.35761, "WGS84_Lat": 23.094354 }, "geometry": { "type": "Point", "coordinates": [ 114.357610226167921, 23.094354194619523 ] } },
{ "type": "Feature", "properties": { "ID": null, "站名简": "惠州站", "火车站": "惠州火车站", "省市": "广东_惠州", "谷歌地": 23.151783, "谷歌地_": 114.416591, "地址": "广东省惠州市惠城区惠州大道57", "省": "广东", "市": "惠州", "站名": "惠州站", "lng火星": 114.416591, "lat火星": 23.151783, "type": "passenger", "WGS84_Lng": 114.411621, "WGS84_Lat": 23.154265 }, "geometry": { "type": "Point", "coordinates": [ 114.411620864759342, 23.154264884478291 ] } },
{ "type": "Feature", "properties": { "ID": null, "站名简": "惠州南站", "火车站": "惠州南火车站", "省市": "广东_惠州", "谷歌地": 22.784325, "谷歌地_": 114.492344, "地址": "广东省惠州市惠阳区大埔东路", "省": "广东", "市": "惠州", "站名": "惠州南站", "lng火星": 114.492344, "lat火星": 22.784325, "type": "passenger", "WGS84_Lng": 114.487596, "WGS84_Lat": 22.787114 }, "geometry": { "type": "Point", "coordinates": [ 114.487595862303323, 22.78711369370231 ] } },
{ "type": "Feature", "properties": { "ID": null, "站名简": "惠东站", "火车站": "惠东火车站", "省市": "广东_惠州", "谷歌地": 22.844085, "谷歌地_": 114.794581, "地址": "广东省惠州市惠东县X207", "省": "广东", "市": "惠州", "站名": "惠东站", "lng火星": 114.794581, "lat火星": 22.844085, "type": "passenger", "WGS84_Lng": 114.789929, "WGS84_Lat": 22.846909 }, "geometry": { "type": "Point", "coordinates": [ 114.789929421036632, 22.846908621775604 ] } },
{ "type": "Feature", "properties": { "ID": null, "站名简": "新会站", "火车站": "新会火车站", "省市": "广东_江门", "谷歌地": 22.517644, "谷歌地_": 113.071148, "地址": "广东省江门市新会区新乐路", "省": "广东", "市": "江门", "站名": "新会站", "lng火星": 113.071148, "lat火星": 22.517644, "type": "passenger", "WGS84_Lng": 113.065717, "WGS84_Lat": 22.52035 }, "geometry": { "type": "Point", "coordinates": [ 113.065716637637919, 22.520350322925886 ] } },
{ "type": "Feature", "properties": { "ID": null, "站名简": "江门站", "火车站": "江门火车站", "省市": "广东_江门", "谷歌地": 22.560978, "谷歌地_": 113.103264, "地址": "广东省江门市江海区S364(五邑路)", "省": "广东", "市": "江门", "站名": "江门站", "lng火星": 113.103264, "lat火星": 22.560978, "type": "passenger", "WGS84_Lng": 113.097804, "WGS84_Lat": 22.563665 }, "geometry": { "type": "Point", "coordinates": [ 113.097804259965443, 22.563665213617799 ] } },
{ "type": "Feature", "properties": { "ID": null, "站名简": "南头站", "火车站": "南头火车站", "省市": "广东_深圳", "谷歌地": 22.528051, "谷歌地_": 113.907508, "地址": "广东省深圳市南山区学府路", "省": "广东", "市": "深圳", "站名": "南头站", "lng火星": 113.907508, "lat火星": 22.528051, "type": "passenger", "WGS84_Lng": 113.902647, "WGS84_Lat": 22.531105 }, "geometry": { "type": "Point", "coordinates": [ 113.902647186868876, 22.531104727948186 ] } },
{ "type": "Feature", "properties": { "ID": null, "站名简": "深圳西站", "火车站": "深圳西火车站", "省市": "广东_深圳", "谷歌地": 22.528051, "谷歌地_": 113.907508, "地址": "广东省深圳市南山区学府路", "省": "广东", "市": "深圳", "站名": "深圳西站", "lng火星": 113.907508, "lat火星": 22.528051, "type": "passenger", "WGS84_Lng": 113.902647, "WGS84_Lat": 22.531105 }, "geometry": { "type": "Point", "coordinates": [ 113.902647186868876, 22.531104727948186 ] } },
{ "type": "Feature", "properties": { "ID": null, "站名简": "光明城站", "火车站": "光明城火车站", "省市": "广东_深圳", "谷歌地": 22.733237, "谷歌地_": 113.954517, "地址": "广东省深圳市宝安区三十八号路", "省": "广东", "市": "深圳", "站名": "光明城站", "lng火星": 113.954517, "lat火星": 22.733237, "type": "passenger", "WGS84_Lng": 113.949612, "WGS84_Lat": 22.736195 }, "geometry": { "type": "Point", "coordinates": [ 113.949612250883789, 22.736194597682456 ] } },
{ "type": "Feature", "properties": { "ID": null, "站名简": "深圳北站", "火车站": "深圳北火车站", "省市": "广东_深圳", "谷歌地": 22.609183, "谷歌地_": 114.02899, "地址": "广东省深圳市宝安区新区大道", "省": "广东", "市": "深圳", "站名": "深圳北站", "lng火星": 114.02899, "lat火星": 22.609183, "type": "passenger", "WGS84_Lng": 114.023922, "WGS84_Lat": 22.611958 }, "geometry": { "type": "Point", "coordinates": [ 114.023921627589175, 22.611958169594939 ] } },
{ "type": "Feature", "properties": { "ID": null, "站名简": "深圳站", "火车站": "深圳火车站", "省市": "广东_深圳", "谷歌地": 22.53161, "谷歌地_": 114.11717, "地址": "广东省深圳市罗湖区和平路南", "省": "广东", "市": "深圳", "站名": "深圳站", "lng火星": 114.11717, "lat火星": 22.53161, "type": "passenger", "WGS84_Lng": 114.112069, "WGS84_Lat": 22.534299 }, "geometry": { "type": "Point", "coordinates": [ 114.112068874758236, 22.534299284272365 ] } },
{ "type": "Feature", "properties": { "ID": null, "站名简": "深圳东站", "火车站": "深圳东火车站", "省市": "广东_深圳", "谷歌地": 22.601157, "谷歌地_": 114.118789, "地址": "广东省深圳市龙岗区吉华路104号", "省": "广东", "市": "深圳", "站名": "深圳东站", "lng火星": 114.118789, "lat火星": 22.601157, "type": "passenger", "WGS84_Lng": 114.113686, "WGS84_Lat": 22.603841 }, "geometry": { "type": "Point", "coordinates": [ 114.113685590397992, 22.60384138151413 ] } },
{ "type": "Feature", "properties": { "ID": null, "站名简": "深圳坪山站", "火车站": "深圳坪山火车站", "省市": "广东_深圳", "谷歌地": 22.707765, "谷歌地_": 114.326294, "地址": "广东省深圳市龙岗区深汕公路", "省": "广东", "市": "深圳", "站名": "深圳坪山站", "lng火星": 114.326294, "lat火星": 22.707765, "type": "passenger", "WGS84_Lng": 114.321406, "WGS84_Lat": 22.710511 }, "geometry": { "type": "Point", "coordinates": [ 114.321406490660934, 22.71051112388427 ] } },
{ "type": "Feature", "properties": { "ID": null, "站名简": "怀集站", "火车站": "怀集火车站", "省市": "广东_肇庆", "谷歌地": 23.892782, "谷歌地_": 112.159573, "地址": "广东省肇庆市怀集县G55(二广高速公路)", "省": "广东", "市": "肇庆", "站名": "怀集站", "lng火星": 112.159573, "lat火星": 23.892782, "type": "passenger", "WGS84_Lng": 112.154215, "WGS84_Lat": 23.895341 }, "geometry": { "type": "Point", "coordinates": [ 112.15421454607737, 23.89534108698437 ] } },
{ "type": "Feature", "properties": { "ID": null, "站名简": "广宁站", "火车站": "广宁火车站", "省市": "广东_肇庆", "谷歌地": 23.585086, "谷歌地_": 112.425782, "地址": "广东省肇庆市广宁县南街镇巷口村", "省": "广东", "市": "肇庆", "站名": "广宁站", "lng火星": 112.425782, "lat火星": 23.585086, "type": "passenger", "WGS84_Lng": 112.420412, "WGS84_Lat": 23.587512 }, "geometry": { "type": "Point", "coordinates": [ 112.420412206548278, 23.587511808460505 ] } },
{ "type": "Feature", "properties": { "ID": null, "站名简": "肇庆站", "火车站": "肇庆火车站", "省市": "广东_肇庆", "谷歌地": 23.081471, "谷歌地_": 112.447862, "地址": "广东省肇庆市端州区七星街", "省": "广东", "市": "肇庆", "站名": "肇庆站", "lng火星": 112.447862, "lat火星": 23.081471, "type": "passenger", "WGS84_Lng": 112.442563, "WGS84_Lat": 23.084038 }, "geometry": { "type": "Point", "coordinates": [ 112.442562946561438, 23.084038148885114 ] } },
{ "type": "Feature", "properties": { "ID": null, "站名简": "肇庆东站", "火车站": "肇庆东火车站", "省市": "广东_肇庆", "谷歌地": 23.21345, "谷歌地_": 112.663412, "地址": "广东省肇庆市鼎湖区", "省": "广东", "市": "肇庆", "站名": "肇庆东站", "lng火星": 112.663412, "lat火星": 23.21345, "type": "passenger", "WGS84_Lng": 112.65835, "WGS84_Lat": 23.216214 }, "geometry": { "type": "Point", "coordinates": [ 112.658349988150789, 23.216213752310299 ] } },
{ "type": "Feature", "properties": { "ID": null, "站名简": "古镇站", "火车站": "古镇火车站", "省市": "广东_中山", "谷歌地": 22.597969, "谷歌地_": 113.206135, "地址": "广东省中山市中山市S268(沙古公路)", "省": "广东", "市": "中山", "站名": "古镇站", "lng火星": 113.206135, "lat火星": 22.597969, "type": "passenger", "WGS84_Lng": 113.200815, "WGS84_Lat": 22.600802 }, "geometry": { "type": "Point", "coordinates": [ 113.20081488829571, 22.600802366230365 ] } },
{ "type": "Feature", "properties": { "ID": null, "站名简": "小榄站", "火车站": "小榄火车站", "省市": "广东_中山", "谷歌地": 22.647263, "谷歌地_": 113.269955, "地址": "广东省中山市中山市环镇南路", "省": "广东", "市": "中山", "站名": "小榄站", "lng火星": 113.269955, "lat火星": 22.647263, "type": "passenger", "WGS84_Lng": 113.264653, "WGS84_Lat": 22.650114 }, "geometry": { "type": "Point", "coordinates": [ 113.264653333774618, 22.650113572027593 ] } },
{ "type": "Feature", "properties": { "ID": null, "站名简": "东升站", "火车站": "东升火车站", "省市": "广东_中山", "谷歌地": 22.604726, "谷歌地_": 113.284403, "地址": "广东省中山市东升镇兆龙村", "省": "广东", "市": "中山", "站名": "东升站", "lng火星": 113.284403, "lat火星": 22.604726, "type": "passenger", "WGS84_Lng": 113.279088, "WGS84_Lat": 22.60757 }, "geometry": { "type": "Point", "coordinates": [ 113.279088094169509, 22.607570173252849 ] } },
{ "type": "Feature", "properties": { "ID": null, "站名简": "中山北站", "火车站": "中山北火车站", "省市": "广东_中山", "谷歌地": 22.557285, "谷歌地_": 113.382596, "地址": "广东省中山市中山市民盈西路", "省": "广东", "市": "中山", "站名": "中山北站", "lng火星": 113.382596, "lat火星": 22.557285, "type": "passenger", "WGS84_Lng": 113.377117, "WGS84_Lat": 22.559978 }, "geometry": { "type": "Point", "coordinates": [ 113.377117243189758, 22.559977775884086 ] } },
{ "type": "Feature", "properties": { "ID": null, "站名简": "中山站", "火车站": "中山火车站", "省市": "广东_中山", "谷歌地": 22.543785, "谷歌地_": 113.433218, "地址": "广东省中山市中山市京珠高速公路", "省": "广东", "市": "中山", "站名": "中山站", "lng火星": 113.433218, "lat火星": 22.543785, "type": "passenger", "WGS84_Lng": 113.42776, "WGS84_Lat": 22.546492 }, "geometry": { "type": "Point", "coordinates": [ 113.427760249239768, 22.546492324687822 ] } },
{ "type": "Feature", "properties": { "ID": null, "站名简": "南朗站", "火车站": "南朗火车站", "省市": "广东_中山", "谷歌地": 22.489714, "谷歌地_": 113.533846, "地址": "广东省中山市中山市S111(南岐中路)", "省": "广东", "市": "中山", "站名": "南朗站", "lng火星": 113.533846, "lat火星": 22.489714, "type": "passenger", "WGS84_Lng": 113.528695, "WGS84_Lat": 22.492684 }, "geometry": { "type": "Point", "coordinates": [ 113.528695002394301, 22.492683894489026 ] } },
{ "type": "Feature", "properties": { "ID": null, "站名简": "明珠站", "火车站": "明珠火车站", "省市": "广东_珠海", "谷歌地": 22.268742, "谷歌地_": 113.514985, "地址": "广东省珠海市香洲区梅华街道办新香社区", "省": "广东", "市": "珠海", "站名": "明珠站", "lng火星": 113.514985, "lat火星": 22.268742, "type": "passenger", "WGS84_Lng": 113.509787, "WGS84_Lat": 22.271626 }, "geometry": { "type": "Point", "coordinates": [ 113.509786866421592, 22.271626489456782 ] } },
{ "type": "Feature", "properties": { "ID": null, "站名简": "前山站", "火车站": "前山火车站", "省市": "广东_珠海", "谷歌地": 22.234439, "谷歌地_": 113.52621, "地址": "广东省珠海市港昌", "省": "广东", "市": "珠海", "站名": "前山站", "lng火星": 113.52621, "lat火星": 22.234439, "type": "passenger", "WGS84_Lng": 113.521051, "WGS84_Lat": 22.237345 }, "geometry": { "type": "Point", "coordinates": [ 113.521051494991724, 22.237345292889959 ] } },
{ "type": "Feature", "properties": { "ID": null, "站名简": "珠海站", "火车站": "珠海火车站", "省市": "广东_珠海", "谷歌地": 22.215206, "谷歌地_": 113.549376, "地址": "广东省珠海市香洲区桂花南路35号", "省": "广东", "市": "珠海", "站名": "珠海站", "lng火星": 113.549376, "lat火星": 22.215206, "type": "passenger", "WGS84_Lng": 113.544287, "WGS84_Lat": 22.218163 }, "geometry": { "type": "Point", "coordinates": [ 113.544286541654756, 22.218162568614169 ] } },
{ "type": "Feature", "properties": { "ID": null, "站名简": "唐家湾站", "火车站": "唐家湾火车站", "省市": "广东_珠海", "谷歌地": 22.362827, "谷歌地_": 113.551424, "地址": "广东省珠海市香洲区金凤路", "省": "广东", "市": "珠海", "站名": "唐家湾站", "lng火星": 113.551424, "lat火星": 22.362827, "type": "passenger", "WGS84_Lng": 113.54633, "WGS84_Lat": 22.365825 }, "geometry": { "type": "Point", "coordinates": [ 113.546329639285673, 22.365825164371504 ] } },
{ "type": "Feature", "properties": { "ID": null, "站名简": "珠海北站", "火车站": "珠海北火车站", "省市": "广东_珠海", "谷歌地": 22.401122, "谷歌地_": 113.551838, "地址": "广东省珠海市香洲区金峰北路", "省": "广东", "市": "珠海", "站名": "珠海北站", "lng火星": 113.551838, "lat火星": 22.401122, "type": "passenger", "WGS84_Lng": 113.546743, "WGS84_Lat": 22.404127 }, "geometry": { "type": "Point", "coordinates": [ 113.546742811617634, 22.40412717248083 ] } },
{ "type": "Feature", "properties": { "ID": null, "站名简": "西九龙站", "火车站": "西九龙火车站", "省市": "香港", "谷歌地": 22.30278, "谷歌地_": 114.165, "地址": "香港九龙油尖旺区", "省": "香港", "市": "九龙", "站名": "西九龙站", "lng火星": null, "lat火星": null, "type": "passenger", "WGS84_Lng": 114.165, "WGS84_Lat": 22.30278 }, "geometry": { "type": "Point", "coordinates": [ 114.165, 22.30278 ] } }
]
}
