{
"type": "FeatureCollection",
"crs": { "type": "name", "properties": { "name": "urn:ogc:def:crs:OGC:1.3:CRS84" } },
"features": [
{ "type": "Feature", "properties": { "ID": 1, "Name": "深圳蛇口港", "Location": "22.476229426722327, 113.91448557009947", "latitude": 22.476229426722327, "longitude": 113.91448557009947 }, "geometry": { "type": "Point", "coordinates": [ 113.914485570099473, 22.476229426722327 ] } },
{ "type": "Feature", "properties": { "ID": 2, "Name": "深圳赤湾港", "Location": "22.47715443236928, 113.8906736555057", "latitude": 22.477154432369279, "longitude": 113.89067365550569 }, "geometry": { "type": "Point", "coordinates": [ 113.890673655505694, 22.477154432369279 ] } },
{ "type": "Feature", "properties": { "ID": 3, "Name": "深圳妈湾港", "Location": "22.493396276947262, 113.87491981313075", "latitude": 22.493396276947262, "longitude": 113.87491981313075 }, "geometry": { "type": "Point", "coordinates": [ 113.874919813130745, 22.493396276947262 ] } },
{ "type": "Feature", "properties": { "ID": 4, "Name": "深圳大铲湾码头", "Location": "22.54490107481395, 113.87135822293781", "latitude": 22.54490107481395, "longitude": 113.87135822293781 }, "geometry": { "type": "Point", "coordinates": [ 113.871358222937815, 22.54490107481395 ] } },
{ "type": "Feature", "properties": { "ID": 5, "Name": "深圳盐田港", "Location": "22.57150931904856, 114.2609497220538", "latitude": 22.571509319048559, "longitude": 114.26094972205379 }, "geometry": { "type": "Point", "coordinates": [ 114.260949722053795, 22.571509319048559 ] } },
{ "type": "Feature", "properties": { "ID": 6, "Name": "深圳宝安港", "Location": "22.602234558877804, 113.81468855728302", "latitude": 22.602234558877804, "longitude": 113.81468855728302 }, "geometry": { "type": "Point", "coordinates": [ 113.81468855728302, 22.602234558877804 ] } },
{ "type": "Feature", "properties": { "ID": 7, "Name": "广州南沙港", "Location": "22.80158397929581, 113.5928216525596", "latitude": 22.80158397929581, "longitude": 113.59282165255961 }, "geometry": { "type": "Point", "coordinates": [ 113.592821652559607, 22.80158397929581 ] } },
{ "type": "Feature", "properties": { "ID": 8, "Name": "广州南沙新港", "Location": "22.648286068918875, 113.68585058095039", "latitude": 22.648286068918875, "longitude": 113.68585058095039 }, "geometry": { "type": "Point", "coordinates": [ 113.685850580950387, 22.648286068918875 ] } },
{ "type": "Feature", "properties": { "ID": 9, "Name": "广州南沙客运港", "Location": "22.77256440139583, 113.62107012135954", "latitude": 22.772564401395829, "longitude": 113.62107012135954 }, "geometry": { "type": "Point", "coordinates": [ 113.621070121359537, 22.772564401395829 ] } },
{ "type": "Feature", "properties": { "ID": 10, "Name": "广州莲花山港", "Location": "22.966257001583386, 113.50828594892876", "latitude": 22.966257001583386, "longitude": 113.50828594892876 }, "geometry": { "type": "Point", "coordinates": [ 113.508285948928759, 22.966257001583386 ] } },
{ "type": "Feature", "properties": { "ID": 11, "Name": "广州黄埔港", "Location": "23.0982179777608, 113.44058907902377", "latitude": 23.0982179777608, "longitude": 113.44058907902377 }, "geometry": { "type": "Point", "coordinates": [ 113.440589079023766, 23.0982179777608 ] } },
{ "type": "Feature", "properties": { "ID": 12, "Name": "广州新沙港", "Location": "23.02096741065883, 113.54114680203487", "latitude": 23.02096741065883, "longitude": 113.54114680203487 }, "geometry": { "type": "Point", "coordinates": [ 113.541146802034874, 23.02096741065883 ] } },
{ "type": "Feature", "properties": { "ID": 13, "Name": "广州花都港", "Location": "23.350786291639434, 113.14136204957117", "latitude": 23.350786291639434, "longitude": 113.14136204957117 }, "geometry": { "type": "Point", "coordinates": [ 113.141362049571171, 23.350786291639434 ] } },
{ "type": "Feature", "properties": { "ID": 14, "Name": "珠海高栏港", "Location": "21.918919059406104, 113.23187962231164", "latitude": 21.918919059406104, "longitude": 113.23187962231164 }, "geometry": { "type": "Point", "coordinates": [ 113.231879622311638, 21.918919059406104 ] } },
{ "type": "Feature", "properties": { "ID": 15, "Name": "珠海洪湾港", "Location": "22.166987626411327, 113.46523324297141", "latitude": 22.166987626411327, "longitude": 113.46523324297141 }, "geometry": { "type": "Point", "coordinates": [ 113.465233242971408, 22.166987626411327 ] } },
{ "type": "Feature", "properties": { "ID": 16, "Name": "珠海斗门港", "Location": "22.273033206950927, 113.3350748982542", "latitude": 22.273033206950927, "longitude": 113.33507489825421 }, "geometry": { "type": "Point", "coordinates": [ 113.335074898254206, 22.273033206950927 ] } },
{ "type": "Feature", "properties": { "ID": 17, "Name": "珠海香洲港", "Location": "22.29407007637176, 113.59439704396056", "latitude": 22.29407007637176, "longitude": 113.59439704396056 }, "geometry": { "type": "Point", "coordinates": [ 113.594397043960555, 22.29407007637176 ] } },
{ "type": "Feature", "properties": { "ID": 18, "Name": "珠海九洲港", "Location": "22.244753723262683, 113.60393337010065", "latitude": 22.244753723262683, "longitude": 113.60393337010065 }, "geometry": { "type": "Point", "coordinates": [ 113.603933370100648, 22.244753723262683 ] } },
{ "type": "Feature", "properties": { "ID": 19, "Name": "中山小榄港", "Location": "22.666011986802424, 113.26911906769081", "latitude": 22.666011986802424, "longitude": 113.26911906769081 }, "geometry": { "type": "Point", "coordinates": [ 113.269119067690809, 22.666011986802424 ] } },
{ "type": "Feature", "properties": { "ID": 20, "Name": "中山神湾港", "Location": "22.303742383154756, 113.33260195118892", "latitude": 22.303742383154756, "longitude": 113.33260195118892 }, "geometry": { "type": "Point", "coordinates": [ 113.33260195118892, 22.303742383154756 ] } },
{ "type": "Feature", "properties": { "ID": 21, "Name": "江门鹤山港", "Location": "22.800912990696613, 113.01341679010802", "latitude": 22.800912990696613, "longitude": 113.01341679010802 }, "geometry": { "type": "Point", "coordinates": [ 113.013416790108025, 22.800912990696613 ] } },
{ "type": "Feature", "properties": { "ID": 22, "Name": "江门新会港", "Location": "22.465625314412137, 113.08620812296941", "latitude": 22.465625314412137, "longitude": 113.08620812296941 }, "geometry": { "type": "Point", "coordinates": [ 113.08620812296941, 22.465625314412137 ] } },
{ "type": "Feature", "properties": { "ID": 23, "Name": "江门港", "Location": "22.586868155961056, 113.19368316496264", "latitude": 22.586868155961056, "longitude": 113.19368316496264 }, "geometry": { "type": "Point", "coordinates": [ 113.193683164962636, 22.586868155961056 ] } },
{ "type": "Feature", "properties": { "ID": 24, "Name": "江门三埠港", "Location": "22.370282456228207, 112.7193568197775", "latitude": 22.370282456228207, "longitude": 112.7193568197775 }, "geometry": { "type": "Point", "coordinates": [ 112.719356819777502, 22.370282456228207 ] } },
{ "type": "Feature", "properties": { "ID": 25, "Name": "江门恩平港", "Location": "22.04079686584414, 112.43355695363817", "latitude": 22.04079686584414, "longitude": 112.43355695363817 }, "geometry": { "type": "Point", "coordinates": [ 112.433556953638174, 22.04079686584414 ] } },
{ "type": "Feature", "properties": { "ID": 26, "Name": "肇庆高要港", "Location": "23.038105450381646, 112.42769737452032", "latitude": 23.038105450381646, "longitude": 112.42769737452032 }, "geometry": { "type": "Point", "coordinates": [ 112.427697374520321, 23.038105450381646 ] } },
{ "type": "Feature", "properties": { "ID": 27, "Name": "肇庆新港", "Location": "23.18710034616271, 112.64772029009725", "latitude": 23.187100346162708, "longitude": 112.64772029009725 }, "geometry": { "type": "Point", "coordinates": [ 112.647720290097254, 23.187100346162708 ] } },
{ "type": "Feature", "properties": { "ID": 28, "Name": "肇庆三榕港", "Location": "23.081170376287172, 112.406841575759", "latitude": 23.081170376287172, "longitude": 112.406841575759 }, "geometry": { "type": "Point", "coordinates": [ 112.406841575759003, 23.081170376287172 ] } },
{ "type": "Feature", "properties": { "ID": 29, "Name": "惠州港", "Location": "22.697791413111783, 114.56641323701194", "latitude": 22.697791413111783, "longitude": 114.56641323701194 }, "geometry": { "type": "Point", "coordinates": [ 114.566413237011943, 22.697791413111783 ] } },
{ "type": "Feature", "properties": { "ID": 30, "Name": "东莞虎门港", "Location": "22.865146326534898, 113.58319159424062", "latitude": 22.865146326534898, "longitude": 113.58319159424062 }, "geometry": { "type": "Point", "coordinates": [ 113.583191594240617, 22.865146326534898 ] } },
{ "type": "Feature", "properties": { "ID": 31, "Name": "东莞麻涌码头", "Location": "23.029995026250603, 113.53802678554403", "latitude": 23.029995026250603, "longitude": 113.53802678554403 }, "geometry": { "type": "Point", "coordinates": [ 113.538026785544034, 23.029995026250603 ] } },
{ "type": "Feature", "properties": { "ID": 32, "Name": "东莞虎门镇客运码头", "Location": "22.81553285420564, 113.66703228475157", "latitude": 22.815532854205639, "longitude": 113.66703228475157 }, "geometry": { "type": "Point", "coordinates": [ 113.667032284751571, 22.815532854205639 ] } },
{ "type": "Feature", "properties": { "ID": 33, "Name": "江门银洲湖观光码头", "Location": "22.180417011317854, 113.1054674511079", "latitude": 22.180417011317854, "longitude": 113.1054674511079 }, "geometry": { "type": "Point", "coordinates": [ 113.105467451107899, 22.180417011317854 ] } },
{ "type": "Feature", "properties": { "ID": 34, "Name": "佛山新港", "Location": "22.982713197134057, 113.13915968065098", "latitude": 22.982713197134057, "longitude": 113.13915968065098 }, "geometry": { "type": "Point", "coordinates": [ 113.139159680650977, 22.982713197134057 ] } },
{ "type": "Feature", "properties": { "ID": 35, "Name": "佛山三山港23.03926555462758, 113.23093734805121", "Location": null, "latitude": null, "longitude": null }, "geometry": null },
{ "type": "Feature", "properties": { "ID": 36, "Name": "佛山顺德港22.80647870133976, 113.34372043441763", "Location": null, "latitude": null, "longitude": null }, "geometry": null },
{ "type": "Feature", "properties": { "ID": 37, "Name": "佛山容奇港", "Location": "22.78226313626116, 113.2951890523226", "latitude": 22.782263136261161, "longitude": 113.2951890523226 }, "geometry": { "type": "Point", "coordinates": [ 113.295189052322598, 22.782263136261161 ] } },
{ "type": "Feature", "properties": { "ID": 38, "Name": "佛山三水港", "Location": "23.11635653833438, 112.83000695501549", "latitude": 23.116356538334379, "longitude": 112.83000695501549 }, "geometry": { "type": "Point", "coordinates": [ 112.830006955015492, 23.116356538334379 ] } },
{ "type": "Feature", "properties": { "ID": 39, "Name": "佛山高明港22.894833937693665, 112.90046837045428", "Location": null, "latitude": null, "longitude": null }, "geometry": null },
{ "type": "Feature", "properties": { "ID": 40, "Name": "佛山澜石港", "Location": "22.977509814928023, 113.11231265786304", "latitude": 22.977509814928023, "longitude": 113.11231265786304 }, "geometry": { "type": "Point", "coordinates": [ 113.112312657863043, 22.977509814928023 ] } },
{ "type": "Feature", "properties": { "ID": 41, "Name": "佛山勒流港", "Location": "22.897739169781396, 113.16082681867414", "latitude": 22.897739169781396, "longitude": 113.16082681867414 }, "geometry": { "type": "Point", "coordinates": [ 113.160826818674138, 22.897739169781396 ] } },
{ "type": "Feature", "properties": { "ID": 42, "Name": "佛山北滘港", "Location": "22.90061019203419, 113.24230473778515", "latitude": 22.90061019203419, "longitude": 113.24230473778515 }, "geometry": { "type": "Point", "coordinates": [ 113.242304737785147, 22.90061019203419 ] } },
{ "type": "Feature", "properties": { "ID": 43, "Name": "香港维多利亚港", "Location": "22.3053011605868, 114.17498369897109", "latitude": 22.305301160586801, "longitude": 114.17498369897109 }, "geometry": { "type": "Point", "coordinates": [ 114.17498369897109, 22.305301160586801 ] } },
{ "type": "Feature", "properties": { "ID": 44, "Name": "香港葵涌码头", "Location": "22.350670206911115, 114.11518145813537", "latitude": 22.350670206911115, "longitude": 114.11518145813537 }, "geometry": { "type": "Point", "coordinates": [ 114.115181458135368, 22.350670206911115 ] } },
{ "type": "Feature", "properties": { "ID": 45, "Name": "香港屯门客运码头", "Location": "22.37242374237012, 113.96624325165354", "latitude": 22.37242374237012, "longitude": 113.96624325165354 }, "geometry": { "type": "Point", "coordinates": [ 113.966243251653538, 22.37242374237012 ] } },
{ "type": "Feature", "properties": { "ID": 46, "Name": "香港海天客运码头", "Location": "22.320397560801183, 113.94536188115397", "latitude": 22.320397560801183, "longitude": 113.94536188115397 }, "geometry": { "type": "Point", "coordinates": [ 113.945361881153971, 22.320397560801183 ] } },
{ "type": "Feature", "properties": { "ID": 47, "Name": "香港西贡码头", "Location": "22.38152072106298, 114.27479688116824", "latitude": 22.38152072106298, "longitude": 114.27479688116824 }, "geometry": { "type": "Point", "coordinates": [ 114.274796881168243, 22.38152072106298 ] } },
{ "type": "Feature", "properties": { "ID": 48, "Name": "澳门九澳货柜码头", "Location": "22.136654375665337, 113.59547431831194", "latitude": 22.136654375665337, "longitude": 113.59547431831194 }, "geometry": { "type": "Point", "coordinates": [ 113.595474318311943, 22.136654375665337 ] } },
{ "type": "Feature", "properties": { "ID": 49, "Name": "澳门凼仔客运码头", "Location": "22.164335791959832, 113.57789410589466", "latitude": 22.164335791959832, "longitude": 113.57789410589466 }, "geometry": { "type": "Point", "coordinates": [ 113.577894105894657, 22.164335791959832 ] } },
{ "type": "Feature", "properties": { "ID": 50, "Name": "澳门外港客运码头", "Location": "22.197565900610464, 113.56013327372823", "latitude": 22.197565900610464, "longitude": 113.56013327372823 }, "geometry": { "type": "Point", "coordinates": [ 113.560133273728226, 22.197565900610464 ] } },
{ "type": "Feature", "properties": { "ID": 51, "Name": "澳门内港客运码头", "Location": "22.19490324496087, 113.53536147305718", "latitude": 22.194903244960869, "longitude": 113.53536147305718 }, "geometry": { "type": "Point", "coordinates": [ 113.535361473057179, 22.194903244960869 ] } },
{ "type": "Feature", "properties": { "ID": 52, "Name": "澳门路环码头", "Location": "22.11953169472861, 113.55057685903867", "latitude": 22.119531694728611, "longitude": 113.55057685903867 }, "geometry": { "type": "Point", "coordinates": [ 113.550576859038671, 22.119531694728611 ] } },
{ "type": "Feature", "properties": { "ID": 53, "Name": "中山港", "Location": "22.57493585657091, 113.4862644794081", "latitude": 22.57493585657091, "longitude": 113.48626447940811 }, "geometry": { "type": "Point", "coordinates": [ 113.486264479408106, 22.57493585657091 ] } },
{ "type": "Feature", "properties": { "ID": 54, "Name": "珠海桂山码头", "Location": "22.135407203277335, 113.83175719815004", "latitude": 22.135407203277335, "longitude": 113.83175719815004 }, "geometry": { "type": "Point", "coordinates": [ 113.831757198150044, 22.135407203277335 ] } },
{ "type": "Feature", "properties": { "ID": 55, "Name": "东莞港澳客运码头", "Location": "22.81388060592197, 113.66933593934782", "latitude": 22.81388060592197, "longitude": 113.66933593934782 }, "geometry": { "type": "Point", "coordinates": [ 113.669335939347818, 22.81388060592197 ] } },
{ "type": "Feature", "properties": { "ID": 56, "Name": "东莞国际码头", "Location": "22.90152296067662, 113.60192704595636", "latitude": 22.901522960676619, "longitude": 113.60192704595636 }, "geometry": { "type": "Point", "coordinates": [ 113.601927045956359, 22.901522960676619 ] } }
]
}
